header: 
  seq: 423499
  stamp: 
    secs: 1673257228
    nsecs: 178635455
  frame_id: "world"
pose: 
  position: 
    x: -1.163848876953125
    y: -0.6335971355438232
    z: 0.02660524472594261
  orientation: 
    x: 0.40280047059059143
    y: 0.9149742722511292
    z: -0.023825356736779213
    w: 0.002490073209628463
---
header: 
  seq: 423500
  stamp: 
    secs: 1673257228
    nsecs: 181766875
  frame_id: "world"
pose: 
  position: 
    x: -1.1638659238815308
    y: -0.6335978507995605
    z: 0.026634030044078827
  orientation: 
    x: 0.40274152159690857
    y: 0.9150112867355347
    z: -0.023407980799674988
    w: 0.0024205122608691454
---
header: 
  seq: 423501
  stamp: 
    secs: 1673257228
    nsecs: 185256219
  frame_id: "world"
pose: 
  position: 
    x: -1.1638786792755127
    y: -0.6335947513580322
    z: 0.026648782193660736
  orientation: 
    x: 0.4026177227497101
    y: 0.9150636792182922
    z: -0.023430736735463142
    w: 0.0028949894476681948
---
header: 
  seq: 423502
  stamp: 
    secs: 1673257228
    nsecs: 188594260
  frame_id: "world"
pose: 
  position: 
    x: -1.163888931274414
    y: -0.633592963218689
    z: 0.026679053902626038
  orientation: 
    x: 0.40268293023109436
    y: 0.9150305986404419
    z: -0.02365437150001526
    w: 0.0024361188989132643
---
header: 
  seq: 423503
  stamp: 
    secs: 1673257228
    nsecs: 192131403
  frame_id: "world"
pose: 
  position: 
    x: -1.1638911962509155
    y: -0.6335974931716919
    z: 0.026691021397709846
  orientation: 
    x: 0.40268465876579285
    y: 0.9150241613388062
    z: -0.02382679283618927
    w: 0.002864131238311529
---
header: 
  seq: 423504
  stamp: 
    secs: 1673257228
    nsecs: 195204270
  frame_id: "world"
pose: 
  position: 
    x: -1.1639090776443481
    y: -0.6335859298706055
    z: 0.026706526055932045
  orientation: 
    x: 0.4026193618774414
    y: 0.9150588512420654
    z: -0.023631304502487183
    w: 0.002582137007266283
---
header: 
  seq: 423505
  stamp: 
    secs: 1673257228
    nsecs: 198593025
  frame_id: "world"
pose: 
  position: 
    x: -1.1639010906219482
    y: -0.6335504651069641
    z: 0.026637351140379906
  orientation: 
    x: 0.40253081917762756
    y: 0.9149896502494812
    z: -0.02761390060186386
    w: 0.0005886675207875669
---
header: 
  seq: 423506
  stamp: 
    secs: 1673257228
    nsecs: 202044876
  frame_id: "world"
pose: 
  position: 
    x: -1.1638948917388916
    y: -0.6335489749908447
    z: 0.0266278013586998
  orientation: 
    x: 0.4024207293987274
    y: 0.9150346517562866
    z: -0.027737360447645187
    w: 7.517066114814952e-05
---
header: 
  seq: 423507
  stamp: 
    secs: 1673257228
    nsecs: 205394486
  frame_id: "world"
pose: 
  position: 
    x: -1.1639031171798706
    y: -0.6336044669151306
    z: 0.026693910360336304
  orientation: 
    x: 0.40257903933525085
    y: 0.9150734543800354
    z: -0.023797575384378433
    w: 0.002132726600393653
---
header: 
  seq: 423508
  stamp: 
    secs: 1673257228
    nsecs: 208716510
  frame_id: "world"
pose: 
  position: 
    x: -1.1638994216918945
    y: -0.6336031556129456
    z: 0.02670377679169178
  orientation: 
    x: 0.4026642441749573
    y: 0.915036678314209
    z: -0.02373955026268959
    w: 0.002433449262753129
---
header: 
  seq: 423509
  stamp: 
    secs: 1673257228
    nsecs: 212131139
  frame_id: "world"
pose: 
  position: 
    x: -1.1638870239257812
    y: -0.6336431503295898
    z: 0.026655903086066246
  orientation: 
    x: -0.06282658129930496
    y: 0.06062991917133331
    z: 0.9935365915298462
    w: -0.07253891974687576
---
header: 
  seq: 423510
  stamp: 
    secs: 1673257228
    nsecs: 217655475
  frame_id: "world"
pose: 
  position: 
    x: -1.163882851600647
    y: -0.6335936188697815
    z: 0.026670217514038086
  orientation: 
    x: 0.4026419222354889
    y: 0.9150484204292297
    z: -0.023678377270698547
    w: 0.00229506753385067
---
header: 
  seq: 423511
  stamp: 
    secs: 1673257228
    nsecs: 218707898
  frame_id: "world"
pose: 
  position: 
    x: -1.163871169090271
    y: -0.6336092352867126
    z: 0.0266532264649868
  orientation: 
    x: 0.40250295400619507
    y: 0.915103018283844
    z: -0.023897331207990646
    w: 0.0026309548411518335
---
header: 
  seq: 423512
  stamp: 
    secs: 1673257228
    nsecs: 224246266
  frame_id: "world"
pose: 
  position: 
    x: -1.1638613939285278
    y: -0.6336033940315247
    z: 0.02664126828312874
  orientation: 
    x: 0.40275663137435913
    y: 0.9149985313415527
    z: -0.02363218367099762
    w: 0.0025491693522781134
---
header: 
  seq: 423513
  stamp: 
    secs: 1673257228
    nsecs: 225423123
  frame_id: "world"
pose: 
  position: 
    x: -1.1638630628585815
    y: -0.6335936188697815
    z: 0.026642339304089546
  orientation: 
    x: 0.4025413990020752
    y: 0.9150936603546143
    z: -0.02360084280371666
    w: 0.002642075764015317
---
header: 
  seq: 423514
  stamp: 
    secs: 1673257228
    nsecs: 228694996
  frame_id: "world"
pose: 
  position: 
    x: -1.163874626159668
    y: -0.6335954070091248
    z: 0.026641473174095154
  orientation: 
    x: 0.40271294116973877
    y: 0.915017306804657
    z: -0.02366088330745697
    w: 0.0024389945901930332
---
header: 
  seq: 423515
  stamp: 
    secs: 1673257228
    nsecs: 232882931
  frame_id: "world"
pose: 
  position: 
    x: -1.163870096206665
    y: -0.6335979104042053
    z: 0.026647048071026802
  orientation: 
    x: 0.4027794897556305
    y: 0.9149963855743408
    z: -0.02331049181520939
    w: 0.002635219832882285
---
header: 
  seq: 423516
  stamp: 
    secs: 1673257228
    nsecs: 237865382
  frame_id: "world"
pose: 
  position: 
    x: -1.163886308670044
    y: -0.6336691975593567
    z: 0.026698464527726173
  orientation: 
    x: -0.06673311442136765
    y: 0.05804993584752083
    z: 0.993606448173523
    w: -0.07016541808843613
---
header: 
  seq: 423517
  stamp: 
    secs: 1673257228
    nsecs: 239033117
  frame_id: "world"
pose: 
  position: 
    x: -1.163880705833435
    y: -0.6335794925689697
    z: 0.02665233053267002
  orientation: 
    x: 0.40265679359436035
    y: 0.91504967212677
    z: -0.02335752174258232
    w: 0.0024492626544088125
---
header: 
  seq: 423518
  stamp: 
    secs: 1673257228
    nsecs: 242406427
  frame_id: "world"
pose: 
  position: 
    x: -1.163879632949829
    y: -0.6335840225219727
    z: 0.026648078113794327
  orientation: 
    x: 0.4028385877609253
    y: 0.914956271648407
    z: -0.023884493857622147
    w: 0.002360919024795294
---
header: 
  seq: 423519
  stamp: 
    secs: 1673257228
    nsecs: 245905017
  frame_id: "world"
pose: 
  position: 
    x: -1.1638890504837036
    y: -0.6335772275924683
    z: 0.0266637671738863
  orientation: 
    x: 0.4026452898979187
    y: 0.9150480628013611
    z: -0.023609735071659088
    w: 0.0025488135870546103
---
header: 
  seq: 423520
  stamp: 
    secs: 1673257228
    nsecs: 249100434
  frame_id: "world"
pose: 
  position: 
    x: -1.163885235786438
    y: -0.633666455745697
    z: 0.026707231998443604
  orientation: 
    x: -0.06658877432346344
    y: 0.05810000002384186
    z: 0.9936161041259766
    w: -0.07012460380792618
---
header: 
  seq: 423521
  stamp: 
    secs: 1673257228
    nsecs: 252483583
  frame_id: "world"
pose: 
  position: 
    x: -1.163877010345459
    y: -0.6335885524749756
    z: 0.026661982759833336
  orientation: 
    x: 0.40280377864837646
    y: 0.9149799942970276
    z: -0.023538511246442795
    w: 0.0025965790264308453
---
header: 
  seq: 423522
  stamp: 
    secs: 1673257228
    nsecs: 255704326
  frame_id: "world"
pose: 
  position: 
    x: -1.1638787984848022
    y: -0.6336755752563477
    z: 0.026703689247369766
  orientation: 
    x: -0.06652799993753433
    y: 0.05764474719762802
    z: 0.9936456084251404
    w: -0.07014042139053345
---
header: 
  seq: 423523
  stamp: 
    secs: 1673257228
    nsecs: 259017402
  frame_id: "world"
pose: 
  position: 
    x: -1.1638561487197876
    y: -0.6335917115211487
    z: 0.0266411192715168
  orientation: 
    x: 0.40279334783554077
    y: 0.9149901270866394
    z: -0.02333133853971958
    w: 0.002491375897079706
---
header: 
  seq: 423524
  stamp: 
    secs: 1673257228
    nsecs: 262657158
  frame_id: "world"
pose: 
  position: 
    x: -1.1638590097427368
    y: -0.6336022019386292
    z: 0.026642799377441406
  orientation: 
    x: 0.40255206823349
    y: 0.9150949120521545
    z: -0.023365333676338196
    w: 0.0026944733690470457
---
header: 
  seq: 423525
  stamp: 
    secs: 1673257228
    nsecs: 266817616
  frame_id: "world"
pose: 
  position: 
    x: -1.1638531684875488
    y: -0.6336931586265564
    z: 0.02669156901538372
  orientation: 
    x: -0.06654421240091324
    y: 0.05789503827691078
    z: 0.9936302900314331
    w: -0.07013574242591858
---
header: 
  seq: 423526
  stamp: 
    secs: 1673257228
    nsecs: 269455099
  frame_id: "world"
pose: 
  position: 
    x: -1.1638566255569458
    y: -0.6337004899978638
    z: 0.02670578472316265
  orientation: 
    x: -0.06660071760416031
    y: 0.05806254968047142
    z: 0.9936195611953735
    w: -0.07009536027908325
---
header: 
  seq: 423527
  stamp: 
    secs: 1673257228
    nsecs: 272474871
  frame_id: "world"
pose: 
  position: 
    x: -1.163847804069519
    y: -0.633617103099823
    z: 0.026654088869690895
  orientation: 
    x: 0.4026623070240021
    y: 0.9150412678718567
    z: -0.023548536002635956
    w: 0.002869338495656848
---
header: 
  seq: 423528
  stamp: 
    secs: 1673257228
    nsecs: 276116868
  frame_id: "world"
pose: 
  position: 
    x: -1.1638563871383667
    y: -0.6336080431938171
    z: 0.026664091274142265
  orientation: 
    x: 0.4026809632778168
    y: 0.9150276780128479
    z: -0.023813745006918907
    w: 0.002335796132683754
---
header: 
  seq: 423529
  stamp: 
    secs: 1673257228
    nsecs: 279281696
  frame_id: "world"
pose: 
  position: 
    x: -1.1638630628585815
    y: -0.6336070895195007
    z: 0.02666972577571869
  orientation: 
    x: 0.40256214141845703
    y: 0.9150904417037964
    z: -0.023352913558483124
    w: 0.0028288261964917183
---
header: 
  seq: 423530
  stamp: 
    secs: 1673257228
    nsecs: 282750344
  frame_id: "world"
pose: 
  position: 
    x: -1.1638729572296143
    y: -0.6336043477058411
    z: 0.026679150760173798
  orientation: 
    x: 0.4025036692619324
    y: 0.9151109457015991
    z: -0.023600975051522255
    w: 0.002406967803835869
---
header: 
  seq: 423531
  stamp: 
    secs: 1673257228
    nsecs: 286033686
  frame_id: "world"
pose: 
  position: 
    x: -1.1638859510421753
    y: -0.6336057782173157
    z: 0.02669811248779297
  orientation: 
    x: 0.4026085436344147
    y: 0.9150651693344116
    z: -0.023594342172145844
    w: 0.0023349749390035868
---
header: 
  seq: 423532
  stamp: 
    secs: 1673257228
    nsecs: 289358885
  frame_id: "world"
pose: 
  position: 
    x: -1.1639093160629272
    y: -0.6335952281951904
    z: 0.02669762261211872
  orientation: 
    x: 0.4023469388484955
    y: 0.9151870012283325
    z: -0.023328479379415512
    w: 0.002350008813664317
---
header: 
  seq: 423533
  stamp: 
    secs: 1673257228
    nsecs: 293465154
  frame_id: "world"
pose: 
  position: 
    x: -1.1639180183410645
    y: -0.6336429715156555
    z: 0.026664255186915398
  orientation: 
    x: -0.06291524320840836
    y: 0.060840949416160583
    z: 0.9935404658317566
    w: -0.07223253697156906
---
header: 
  seq: 423534
  stamp: 
    secs: 1673257228
    nsecs: 296451271
  frame_id: "world"
pose: 
  position: 
    x: -1.1639076471328735
    y: -0.633588969707489
    z: 0.026688316836953163
  orientation: 
    x: 0.40271079540252686
    y: 0.9150200486183167
    z: -0.02361893467605114
    w: 0.0021221383940428495
---
header: 
  seq: 423535
  stamp: 
    secs: 1673257228
    nsecs: 299410370
  frame_id: "world"
pose: 
  position: 
    x: -1.1639117002487183
    y: -0.6335822939872742
    z: 0.026665668934583664
  orientation: 
    x: 0.40249356627464294
    y: 0.9151172637939453
    z: -0.023530878126621246
    w: 0.002381454221904278
---
header: 
  seq: 423536
  stamp: 
    secs: 1673257228
    nsecs: 303265767
  frame_id: "world"
pose: 
  position: 
    x: -1.1639115810394287
    y: -0.6335893273353577
    z: 0.026647426187992096
  orientation: 
    x: 0.40274253487586975
    y: 0.9150063395500183
    z: -0.023591265082359314
    w: 0.0023132304195314646
---
header: 
  seq: 423537
  stamp: 
    secs: 1673257228
    nsecs: 307157264
  frame_id: "world"
pose: 
  position: 
    x: -1.1638984680175781
    y: -0.6335819959640503
    z: 0.026633787900209427
  orientation: 
    x: 0.40267959237098694
    y: 0.9150413870811462
    z: -0.023271512240171432
    w: 0.002607091562822461
---
header: 
  seq: 423538
  stamp: 
    secs: 1673257228
    nsecs: 310029827
  frame_id: "world"
pose: 
  position: 
    x: -1.1638908386230469
    y: -0.6335770487785339
    z: 0.026618892326951027
  orientation: 
    x: 0.40269145369529724
    y: 0.9150272011756897
    z: -0.02364792861044407
    w: 0.002383790211752057
---
header: 
  seq: 423539
  stamp: 
    secs: 1673257228
    nsecs: 312990235
  frame_id: "world"
pose: 
  position: 
    x: -1.1638834476470947
    y: -0.6335957050323486
    z: 0.026602212339639664
  orientation: 
    x: 0.40274372696876526
    y: 0.9149965643882751
    z: -0.023908281698822975
    w: 0.0027075542602688074
---
header: 
  seq: 423540
  stamp: 
    secs: 1673257228
    nsecs: 316869901
  frame_id: "world"
pose: 
  position: 
    x: -1.163865089416504
    y: -0.6335853338241577
    z: 0.02660340629518032
  orientation: 
    x: 0.402665913105011
    y: 0.9150336980819702
    z: -0.023829510435461998
    w: 0.0024067063350230455
---
header: 
  seq: 423541
  stamp: 
    secs: 1673257228
    nsecs: 319655733
  frame_id: "world"
pose: 
  position: 
    x: -1.1638541221618652
    y: -0.6335941553115845
    z: 0.02660658396780491
  orientation: 
    x: 0.4026544392108917
    y: 0.9150479435920715
    z: -0.023496726527810097
    w: 0.002167646074667573
---
header: 
  seq: 423542
  stamp: 
    secs: 1673257228
    nsecs: 322950977
  frame_id: "world"
pose: 
  position: 
    x: -1.1638445854187012
    y: -0.6336119771003723
    z: 0.026619363576173782
  orientation: 
    x: 0.4027854800224304
    y: 0.9149832129478455
    z: -0.023704921826720238
    w: 0.0027787338476628065
---
header: 
  seq: 423543
  stamp: 
    secs: 1673257228
    nsecs: 326554596
  frame_id: "world"
pose: 
  position: 
    x: -1.1638456583023071
    y: -0.6336110830307007
    z: 0.02664991095662117
  orientation: 
    x: 0.40269649028778076
    y: 0.9150276780128479
    z: -0.023471225053071976
    w: 0.002999745076522231
---
header: 
  seq: 423544
  stamp: 
    secs: 1673257228
    nsecs: 329911166
  frame_id: "world"
pose: 
  position: 
    x: -1.1638450622558594
    y: -0.6336210370063782
    z: 0.026654819026589394
  orientation: 
    x: 0.4028513431549072
    y: 0.9149518609046936
    z: -0.02384243533015251
    w: 0.0023373812437057495
---
header: 
  seq: 423545
  stamp: 
    secs: 1673257228
    nsecs: 333344005
  frame_id: "world"
pose: 
  position: 
    x: -1.1638460159301758
    y: -0.6336128115653992
    z: 0.026679078117012978
  orientation: 
    x: 0.4027773141860962
    y: 0.9149790406227112
    z: -0.02397390455007553
    w: 0.0030366128776222467
---
header: 
  seq: 423546
  stamp: 
    secs: 1673257228
    nsecs: 339129300
  frame_id: "world"
pose: 
  position: 
    x: -1.1638424396514893
    y: -0.6336213946342468
    z: 0.026699651032686234
  orientation: 
    x: 0.4028390944004059
    y: 0.9149609804153442
    z: -0.023653637617826462
    w: 0.002755457302555442
---
header: 
  seq: 423547
  stamp: 
    secs: 1673257228
    nsecs: 339986041
  frame_id: "world"
pose: 
  position: 
    x: -1.1638504266738892
    y: -0.6336118578910828
    z: 0.02671368047595024
  orientation: 
    x: 0.40264272689819336
    y: 0.9150391817092896
    z: -0.0239658672362566
    w: 0.0028140004724264145
---
header: 
  seq: 423548
  stamp: 
    secs: 1673257228
    nsecs: 343763227
  frame_id: "world"
pose: 
  position: 
    x: -1.1638457775115967
    y: -0.6336086392402649
    z: 0.026721157133579254
  orientation: 
    x: 0.4026864767074585
    y: 0.9150200486183167
    z: -0.023933639749884605
    w: 0.003045752178877592
---
header: 
  seq: 423549
  stamp: 
    secs: 1673257228
    nsecs: 346720330
  frame_id: "world"
pose: 
  position: 
    x: -1.1638575792312622
    y: -0.6335957646369934
    z: 0.026718560606241226
  orientation: 
    x: 0.40264245867729187
    y: 0.9150390028953552
    z: -0.023942764848470688
    w: 0.003065624739974737
---
header: 
  seq: 423550
  stamp: 
    secs: 1673257228
    nsecs: 350199530
  frame_id: "world"
pose: 
  position: 
    x: -1.163856029510498
    y: -0.6336060166358948
    z: 0.026718107983469963
  orientation: 
    x: 0.402849942445755
    y: 0.914965033531189
    z: -0.02336769923567772
    w: 0.0022312726359814405
---
header: 
  seq: 423551
  stamp: 
    secs: 1673257228
    nsecs: 353631538
  frame_id: "world"
pose: 
  position: 
    x: -1.1638563871383667
    y: -0.6335967779159546
    z: 0.026701098307967186
  orientation: 
    x: 0.4029039740562439
    y: 0.9149414896965027
    z: -0.023346813395619392
    w: 0.00231299945153296
---
header: 
  seq: 423552
  stamp: 
    secs: 1673257228
    nsecs: 356725553
  frame_id: "world"
pose: 
  position: 
    x: -1.1638603210449219
    y: -0.6335954070091248
    z: 0.026673994958400726
  orientation: 
    x: 0.4028376042842865
    y: 0.9149704575538635
    z: -0.023355137556791306
    w: 0.0023485305719077587
---
header: 
  seq: 423553
  stamp: 
    secs: 1673257228
    nsecs: 361004673
  frame_id: "world"
pose: 
  position: 
    x: -1.163871169090271
    y: -0.6335912346839905
    z: 0.026656655594706535
  orientation: 
    x: 0.40269139409065247
    y: 0.9150400757789612
    z: -0.023104699328541756
    w: 0.0027108972426503897
---
header: 
  seq: 423554
  stamp: 
    secs: 1673257228
    nsecs: 363426456
  frame_id: "world"
pose: 
  position: 
    x: -1.1638637781143188
    y: -0.6335840225219727
    z: 0.02662503346800804
  orientation: 
    x: 0.4026886522769928
    y: 0.9150242209434509
    z: -0.023759981617331505
    w: 0.0028422020841389894
---
header: 
  seq: 423555
  stamp: 
    secs: 1673257228
    nsecs: 370269219
  frame_id: "world"
pose: 
  position: 
    x: -1.1638673543930054
    y: -0.6335857510566711
    z: 0.0266192015260458
  orientation: 
    x: 0.4028775990009308
    y: 0.9149402976036072
    z: -0.0238102488219738
    w: 0.002649974077939987
---
header: 
  seq: 423556
  stamp: 
    secs: 1673257228
    nsecs: 370325403
  frame_id: "world"
pose: 
  position: 
    x: -1.1638776063919067
    y: -0.6335882544517517
    z: 0.02661638893187046
  orientation: 
    x: 0.4024966061115265
    y: 0.9151199460029602
    z: -0.02336365357041359
    w: 0.0024931891821324825
---
header: 
  seq: 423557
  stamp: 
    secs: 1673257228
    nsecs: 373511308
  frame_id: "world"
pose: 
  position: 
    x: -1.1638816595077515
    y: -0.6335984468460083
    z: 0.026604557409882545
  orientation: 
    x: 0.4027034640312195
    y: 0.9150225520133972
    z: -0.0236201174557209
    w: 0.002407175488770008
---
header: 
  seq: 423558
  stamp: 
    secs: 1673257228
    nsecs: 377457175
  frame_id: "world"
pose: 
  position: 
    x: -1.1638802289962769
    y: -0.6335991621017456
    z: 0.026629142463207245
  orientation: 
    x: 0.4027852416038513
    y: 0.9149879217147827
    z: -0.023534150794148445
    w: 0.0027103351894766092
---
header: 
  seq: 423559
  stamp: 
    secs: 1673257228
    nsecs: 380275213
  frame_id: "world"
pose: 
  position: 
    x: -1.1638883352279663
    y: -0.63361656665802
    z: 0.02663642354309559
  orientation: 
    x: 0.40267518162727356
    y: 0.9150190949440002
    z: -0.02423897013068199
    w: 0.002325558103621006
---
header: 
  seq: 423560
  stamp: 
    secs: 1673257228
    nsecs: 383627959
  frame_id: "world"
pose: 
  position: 
    x: -1.1638977527618408
    y: -0.6336184740066528
    z: 0.026650814339518547
  orientation: 
    x: 0.4026000499725342
    y: 0.9150715470314026
    z: -0.02346854656934738
    w: 0.0025733241345733404
---
header: 
  seq: 423561
  stamp: 
    secs: 1673257228
    nsecs: 387103044
  frame_id: "world"
pose: 
  position: 
    x: -1.163900375366211
    y: -0.6336163282394409
    z: 0.0266653373837471
  orientation: 
    x: 0.4026823937892914
    y: 0.9150213599205017
    z: -0.023994021117687225
    w: 0.0026809638366103172
---
header: 
  seq: 423562
  stamp: 
    secs: 1673257228
    nsecs: 392848231
  frame_id: "world"
pose: 
  position: 
    x: -1.1638987064361572
    y: -0.6336188316345215
    z: 0.026681017130613327
  orientation: 
    x: 0.40236130356788635
    y: 0.91518634557724
    z: -0.02311849035322666
    w: 0.0022362135350704193
---
header: 
  seq: 423563
  stamp: 
    secs: 1673257228
    nsecs: 393914099
  frame_id: "world"
pose: 
  position: 
    x: -1.1639087200164795
    y: -0.6336215734481812
    z: 0.02669433504343033
  orientation: 
    x: 0.4026845395565033
    y: 0.9150325059890747
    z: -0.023570075631141663
    w: 0.0022841868922114372
---
header: 
  seq: 423564
  stamp: 
    secs: 1673257228
    nsecs: 397670657
  frame_id: "world"
pose: 
  position: 
    x: -1.1638948917388916
    y: -0.6335620880126953
    z: 0.02660311758518219
  orientation: 
    x: 0.4023241102695465
    y: 0.9150639176368713
    z: -0.028163690119981766
    w: 0.0005906279548071325
---
header: 
  seq: 423565
  stamp: 
    secs: 1673257228
    nsecs: 401042690
  frame_id: "world"
pose: 
  position: 
    x: -1.163887858390808
    y: -0.6336071491241455
    z: 0.02669956535100937
  orientation: 
    x: 0.4029543995857239
    y: 0.9149101972579956
    z: -0.02366786263883114
    w: 0.0026423693634569645
---
header: 
  seq: 423566
  stamp: 
    secs: 1673257228
    nsecs: 403838349
  frame_id: "world"
pose: 
  position: 
    x: -1.1638867855072021
    y: -0.6336052417755127
    z: 0.026690246537327766
  orientation: 
    x: 0.4026958644390106
    y: 0.9150172472000122
    z: -0.02394900470972061
    w: 0.002446037484332919
---
header: 
  seq: 423567
  stamp: 
    secs: 1673257228
    nsecs: 407295757
  frame_id: "world"
pose: 
  position: 
    x: -1.1638765335083008
    y: -0.6336013674736023
    z: 0.026684308424592018
  orientation: 
    x: 0.402945876121521
    y: 0.9149165749549866
    z: -0.023544110357761383
    w: 0.0028536892496049404
---
header: 
  seq: 423568
  stamp: 
    secs: 1673257228
    nsecs: 411113588
  frame_id: "world"
pose: 
  position: 
    x: -1.1638656854629517
    y: -0.6335973739624023
    z: 0.026658523827791214
  orientation: 
    x: 0.40271201729774475
    y: 0.9150118827819824
    z: -0.023884816095232964
    w: 0.0024490617215633392
---
header: 
  seq: 423569
  stamp: 
    secs: 1673257228
    nsecs: 413914415
  frame_id: "world"
pose: 
  position: 
    x: -1.163841962814331
    y: -0.6335566639900208
    z: 0.026564566418528557
  orientation: 
    x: 0.4026915431022644
    y: 0.914895236492157
    z: -0.028388947248458862
    w: 0.000656821473967284
---
header: 
  seq: 423570
  stamp: 
    secs: 1673257228
    nsecs: 419791483
  frame_id: "world"
pose: 
  position: 
    x: -1.1638449430465698
    y: -0.6336631774902344
    z: 0.026685675606131554
  orientation: 
    x: 0.06601858139038086
    y: -0.058360256254673004
    z: -0.9936281442642212
    w: 0.07027691602706909
---
header: 
  seq: 423571
  stamp: 
    secs: 1673257228
    nsecs: 420641803
  frame_id: "world"
pose: 
  position: 
    x: -1.1638391017913818
    y: -0.6335910558700562
    z: 0.02661980129778385
  orientation: 
    x: -0.4028931260108948
    y: -0.9149420857429504
    z: 0.023480461910367012
    w: -0.002597472397610545
---
header: 
  seq: 423572
  stamp: 
    secs: 1673257228
    nsecs: 424224873
  frame_id: "world"
pose: 
  position: 
    x: -1.1638402938842773
    y: -0.633584201335907
    z: 0.026607390493154526
  orientation: 
    x: -0.40268731117248535
    y: -0.9150264859199524
    z: 0.023708591237664223
    w: -0.00272309104911983
---
header: 
  seq: 423573
  stamp: 
    secs: 1673257228
    nsecs: 427607426
  frame_id: "world"
pose: 
  position: 
    x: -1.1638295650482178
    y: -0.6336048245429993
    z: 0.026594849303364754
  orientation: 
    x: -0.4030163288116455
    y: -0.9148791432380676
    z: 0.02377134934067726
    w: -0.002983798971399665
---
header: 
  seq: 423574
  stamp: 
    secs: 1673257228
    nsecs: 430953989
  frame_id: "world"
pose: 
  position: 
    x: -1.1638352870941162
    y: -0.6335996985435486
    z: 0.02660575695335865
  orientation: 
    x: -0.40261223912239075
    y: -0.915059506893158
    z: 0.02372700721025467
    w: -0.002562026958912611
---
header: 
  seq: 423575
  stamp: 
    secs: 1673257228
    nsecs: 434092677
  frame_id: "world"
pose: 
  position: 
    x: -1.1638418436050415
    y: -0.6336067914962769
    z: 0.0266253724694252
  orientation: 
    x: -0.40259334444999695
    y: -0.9150602221488953
    z: 0.024030400440096855
    w: -0.0024700192734599113
---
header: 
  seq: 423576
  stamp: 
    secs: 1673257228
    nsecs: 438003078
  frame_id: "world"
pose: 
  position: 
    x: -1.163814902305603
    y: -0.6335675716400146
    z: 0.026701975613832474
  orientation: 
    x: -0.4002330005168915
    y: -0.9160148501396179
    z: 0.026635857298970222
    w: -0.004573533311486244
---
header: 
  seq: 423577
  stamp: 
    secs: 1673257228
    nsecs: 440865978
  frame_id: "world"
pose: 
  position: 
    x: -1.1638575792312622
    y: -0.6336188316345215
    z: 0.026658881455659866
  orientation: 
    x: -0.4026704430580139
    y: -0.9150463938713074
    z: 0.02326369471848011
    w: -0.0023471417371183634
---
header: 
  seq: 423578
  stamp: 
    secs: 1673257228
    nsecs: 445099733
  frame_id: "world"
pose: 
  position: 
    x: -1.1638702154159546
    y: -0.6336127519607544
    z: 0.026692699640989304
  orientation: 
    x: -0.4028286933898926
    y: -0.9149656891822815
    z: 0.023665599524974823
    w: -0.002623009029775858
---
header: 
  seq: 423579
  stamp: 
    secs: 1673257228
    nsecs: 447482041
  frame_id: "world"
pose: 
  position: 
    x: -1.163875937461853
    y: -0.6336123943328857
    z: 0.026707449927926064
  orientation: 
    x: -0.402651309967041
    y: -0.915048360824585
    z: 0.023504314944148064
    w: -0.002481299452483654
---
header: 
  seq: 423580
  stamp: 
    secs: 1673257228
    nsecs: 451504066
  frame_id: "world"
pose: 
  position: 
    x: -1.1638860702514648
    y: -0.6336125731468201
    z: 0.02672988548874855
  orientation: 
    x: -0.40250980854034424
    y: -0.9151076078414917
    z: 0.023628387600183487
    w: -0.002377520315349102
---
header: 
  seq: 423581
  stamp: 
    secs: 1673257228
    nsecs: 454403551
  frame_id: "world"
pose: 
  position: 
    x: -1.1639056205749512
    y: -0.6336119174957275
    z: 0.026728421449661255
  orientation: 
    x: -0.40241384506225586
    y: -0.9151645302772522
    z: 0.023025093600153923
    w: -0.0026305096689611673
---
header: 
  seq: 423582
  stamp: 
    secs: 1673257228
    nsecs: 458538325
  frame_id: "world"
pose: 
  position: 
    x: -1.163939356803894
    y: -0.6336753368377686
    z: 0.026650233194231987
  orientation: 
    x: 0.06241343542933464
    y: -0.057315509766340256
    z: -0.9937925338745117
    w: 0.07208328694105148
---
header: 
  seq: 423583
  stamp: 
    secs: 1673257228
    nsecs: 461254083
  frame_id: "world"
pose: 
  position: 
    x: -1.16390061378479
    y: -0.6336159110069275
    z: 0.026726678013801575
  orientation: 
    x: -0.402719646692276
    y: -0.9150252342224121
    z: 0.0232255682349205
    w: -0.0025251286569982767
---
header: 
  seq: 423584
  stamp: 
    secs: 1673257228
    nsecs: 465520972
  frame_id: "world"
pose: 
  position: 
    x: -1.1638906002044678
    y: -0.6335636973381042
    z: 0.02662717178463936
  orientation: 
    x: -0.40261217951774597
    y: -0.9149535298347473
    z: 0.027626078575849533
    w: -0.0005519328406080604
---
header: 
  seq: 423585
  stamp: 
    secs: 1673257228
    nsecs: 467946348
  frame_id: "world"
pose: 
  position: 
    x: -1.163895606994629
    y: -0.6336036920547485
    z: 0.026698928326368332
  orientation: 
    x: -0.40284088253974915
    y: -0.914957582950592
    z: 0.023796575143933296
    w: -0.0023679877631366253
---
header: 
  seq: 423586
  stamp: 
    secs: 1673257228
    nsecs: 471610729
  frame_id: "world"
pose: 
  position: 
    x: -1.1638799905776978
    y: -0.633605420589447
    z: 0.02667560987174511
  orientation: 
    x: -0.4026276469230652
    y: -0.9150602221488953
    z: 0.023428289219737053
    w: -0.0026248835492879152
---
header: 
  seq: 423587
  stamp: 
    secs: 1673257228
    nsecs: 474544068
  frame_id: "world"
pose: 
  position: 
    x: -1.1638712882995605
    y: -0.6336058974266052
    z: 0.026630692183971405
  orientation: 
    x: -0.4027295410633087
    y: -0.914996862411499
    z: 0.024181494489312172
    w: -0.002249110024422407
---
header: 
  seq: 423588
  stamp: 
    secs: 1673257228
    nsecs: 477995372
  frame_id: "world"
pose: 
  position: 
    x: -1.163865566253662
    y: -0.633598804473877
    z: 0.026608344167470932
  orientation: 
    x: -0.40277814865112305
    y: -0.9149775505065918
    z: 0.02407405897974968
    w: -0.0025269368197768927
---
header: 
  seq: 423589
  stamp: 
    secs: 1673257228
    nsecs: 481184614
  frame_id: "world"
pose: 
  position: 
    x: -1.1638586521148682
    y: -0.6336033940315247
    z: 0.02659231796860695
  orientation: 
    x: -0.4027758538722992
    y: -0.914984405040741
    z: 0.023849930614233017
    w: -0.002509691519662738
---
header: 
  seq: 423590
  stamp: 
    secs: 1673257228
    nsecs: 484743122
  frame_id: "world"
pose: 
  position: 
    x: -1.1638511419296265
    y: -0.6336048245429993
    z: 0.026574578136205673
  orientation: 
    x: -0.4026927947998047
    y: -0.9150266647338867
    z: 0.023621436208486557
    w: -0.00259365770034492
---
header: 
  seq: 423591
  stamp: 
    secs: 1673257228
    nsecs: 488436609
  frame_id: "world"
pose: 
  position: 
    x: -1.1638474464416504
    y: -0.633610725402832
    z: 0.02657501958310604
  orientation: 
    x: -0.40278249979019165
    y: -0.9149832129478455
    z: 0.023802900686860085
    w: -0.0023280326277017593
---
header: 
  seq: 423592
  stamp: 
    secs: 1673257228
    nsecs: 491451617
  frame_id: "world"
pose: 
  position: 
    x: -1.1638575792312622
    y: -0.6336928606033325
    z: 0.026630977168679237
  orientation: 
    x: 0.06669698655605316
    y: -0.057808954268693924
    z: -0.9936336874961853
    w: 0.07001335918903351
---
header: 
  seq: 423593
  stamp: 
    secs: 1673257228
    nsecs: 495674023
  frame_id: "world"
pose: 
  position: 
    x: -1.1638500690460205
    y: -0.6336024403572083
    z: 0.026583999395370483
  orientation: 
    x: -0.4028688669204712
    y: -0.9149462580680847
    z: 0.02376813068985939
    w: -0.002265883143991232
---
header: 
  seq: 423594
  stamp: 
    secs: 1673257228
    nsecs: 498210535
  frame_id: "world"
pose: 
  position: 
    x: -1.163852334022522
    y: -0.6336085796356201
    z: 0.02660577930510044
  orientation: 
    x: -0.40272918343544006
    y: -0.9150029420852661
    z: 0.02396301180124283
    w: -0.0021595850121229887
---
header: 
  seq: 423595
  stamp: 
    secs: 1673257228
    nsecs: 501529030
  frame_id: "world"
pose: 
  position: 
    x: -1.1638621091842651
    y: -0.6336078643798828
    z: 0.02663358300924301
  orientation: 
    x: -0.4025197923183441
    y: -0.9151081442832947
    z: 0.02346954494714737
    w: -0.002070506801828742
---
header: 
  seq: 423596
  stamp: 
    secs: 1673257228
    nsecs: 505114762
  frame_id: "world"
pose: 
  position: 
    x: -1.1638704538345337
    y: -0.6336038112640381
    z: 0.026662666350603104
  orientation: 
    x: -0.40247899293899536
    y: -0.9151209592819214
    z: 0.02361482009291649
    w: -0.0026181687135249376
---
header: 
  seq: 423597
  stamp: 
    secs: 1673257228
    nsecs: 509144067
  frame_id: "world"
pose: 
  position: 
    x: -1.1638795137405396
    y: -0.6335971355438232
    z: 0.02667727693915367
  orientation: 
    x: -0.40263015031814575
    y: -0.9150643944740295
    z: 0.02319970168173313
    w: -0.0028139075729995966
---
header: 
  seq: 423598
  stamp: 
    secs: 1673257228
    nsecs: 511622519
  frame_id: "world"
pose: 
  position: 
    x: -1.163893699645996
    y: -0.6336054801940918
    z: 0.02671271376311779
  orientation: 
    x: -0.40264448523521423
    y: -0.9150697588920593
    z: 0.022778552025556564
    w: -0.002418964635580778
---
header: 
  seq: 423599
  stamp: 
    secs: 1673257228
    nsecs: 514938235
  frame_id: "world"
pose: 
  position: 
    x: -1.1639047861099243
    y: -0.633607804775238
    z: 0.026715878397226334
  orientation: 
    x: -0.4025208652019501
    y: -0.9151209592819214
    z: 0.02286645583808422
    w: -0.002765811048448086
---
header: 
  seq: 423600
  stamp: 
    secs: 1673257228
    nsecs: 518884313
  frame_id: "world"
pose: 
  position: 
    x: -1.1638864278793335
    y: -0.6336162686347961
    z: 0.026710806414484978
  orientation: 
    x: -0.4028792381286621
    y: -0.914946436882019
    z: 0.02358594536781311
    w: -0.0022516341414302588
---
header: 
  seq: 423601
  stamp: 
    secs: 1673257228
    nsecs: 521816887
  frame_id: "world"
pose: 
  position: 
    x: -1.1638917922973633
    y: -0.633594274520874
    z: 0.026707470417022705
  orientation: 
    x: -0.40258461236953735
    y: -0.9150795340538025
    z: 0.023415308445692062
    w: -0.0026455984916538
---
header: 
  seq: 423602
  stamp: 
    secs: 1673257228
    nsecs: 525051930
  frame_id: "world"
pose: 
  position: 
    x: -1.163880705833435
    y: -0.6336044073104858
    z: 0.02669832669198513
  orientation: 
    x: -0.4027152359485626
    y: -0.9150174856185913
    z: 0.023597223684191704
    w: -0.002593490993604064
---
header: 
  seq: 423603
  stamp: 
    secs: 1673257228
    nsecs: 528650050
  frame_id: "world"
pose: 
  position: 
    x: -1.1638741493225098
    y: -0.6336027979850769
    z: 0.02668040804564953
  orientation: 
    x: -0.40253812074661255
    y: -0.9151015281677246
    z: 0.023414917290210724
    w: -0.002043558983132243
---
header: 
  seq: 423604
  stamp: 
    secs: 1673257228
    nsecs: 532055773
  frame_id: "world"
pose: 
  position: 
    x: -1.1638646125793457
    y: -0.6336076855659485
    z: 0.026653479784727097
  orientation: 
    x: -0.40281856060028076
    y: -0.9149647951126099
    z: 0.023904988542199135
    w: -0.002308616414666176
---
header: 
  seq: 423605
  stamp: 
    secs: 1673257228
    nsecs: 535516152
  frame_id: "world"
pose: 
  position: 
    x: -1.1638604402542114
    y: -0.6336062550544739
    z: 0.02664044499397278
  orientation: 
    x: -0.4026521146297455
    y: -0.9150468111038208
    z: 0.02351175621151924
    w: -0.00279017211869359
---
header: 
  seq: 423606
  stamp: 
    secs: 1673257228
    nsecs: 538517406
  frame_id: "world"
pose: 
  position: 
    x: -1.1638487577438354
    y: -0.6335707306861877
    z: 0.026542920619249344
  orientation: 
    x: -0.40274909138679504
    y: -0.9148649573326111
    z: 0.02854614518582821
    w: -0.0006292058387771249
---
header: 
  seq: 423607
  stamp: 
    secs: 1673257228
    nsecs: 542336388
  frame_id: "world"
pose: 
  position: 
    x: -1.1638553142547607
    y: -0.6336044669151306
    z: 0.026630371809005737
  orientation: 
    x: -0.4027389883995056
    y: -0.915007472038269
    z: 0.02355329692363739
    w: -0.002851333236321807
---
header: 
  seq: 423608
  stamp: 
    secs: 1673257228
    nsecs: 545288100
  frame_id: "world"
pose: 
  position: 
    x: -1.163858413696289
    y: -0.633605420589447
    z: 0.026626791805028915
  orientation: 
    x: -0.4027147591114044
    y: -0.9150175452232361
    z: 0.023591460660099983
    w: -0.002682394813746214
---
header: 
  seq: 423609
  stamp: 
    secs: 1673257228
    nsecs: 548649340
  frame_id: "world"
pose: 
  position: 
    x: -1.1638641357421875
    y: -0.6336098909378052
    z: 0.02663274109363556
  orientation: 
    x: -0.40295469760894775
    y: -0.9149038791656494
    z: 0.02383599616587162
    w: -0.003217035671696067
---
header: 
  seq: 423610
  stamp: 
    secs: 1673257228
    nsecs: 552102479
  frame_id: "world"
pose: 
  position: 
    x: -1.163875937461853
    y: -0.6335983276367188
    z: 0.026635155081748962
  orientation: 
    x: -0.4026748538017273
    y: -0.9150367379188538
    z: 0.02353695221245289
    w: -0.002578819403424859
---
header: 
  seq: 423611
  stamp: 
    secs: 1673257228
    nsecs: 556004787
  frame_id: "world"
pose: 
  position: 
    x: -1.1638503074645996
    y: -0.6335605978965759
    z: 0.026694057509303093
  orientation: 
    x: -0.40076905488967896
    y: -0.9158002734184265
    z: 0.026038890704512596
    w: -0.0040031005628407
---
header: 
  seq: 423612
  stamp: 
    secs: 1673257228
    nsecs: 558706760
  frame_id: "world"
pose: 
  position: 
    x: -1.163894534111023
    y: -0.6335974335670471
    z: 0.026649372652173042
  orientation: 
    x: -0.40279659628868103
    y: -0.9149913191795349
    z: 0.023180698975920677
    w: -0.0029033489990979433
---
header: 
  seq: 423613
  stamp: 
    secs: 1673257228
    nsecs: 562076763
  frame_id: "world"
pose: 
  position: 
    x: -1.1639007329940796
    y: -0.633594810962677
    z: 0.02665543369948864
  orientation: 
    x: -0.40276360511779785
    y: -0.9150058627128601
    z: 0.023191383108496666
    w: -0.002827722579240799
---
header: 
  seq: 423614
  stamp: 
    secs: 1673257228
    nsecs: 565778082
  frame_id: "world"
pose: 
  position: 
    x: -1.1639068126678467
    y: -0.633597195148468
    z: 0.026665903627872467
  orientation: 
    x: -0.4023771286010742
    y: -0.9151750802993774
    z: 0.023287540301680565
    w: -0.0022066107485443354
---
header: 
  seq: 423615
  stamp: 
    secs: 1673257228
    nsecs: 568859534
  frame_id: "world"
pose: 
  position: 
    x: -1.1639065742492676
    y: -0.6335968971252441
    z: 0.026681020855903625
  orientation: 
    x: -0.4025713801383972
    y: -0.9150888919830322
    z: 0.023287968710064888
    w: -0.002505192067474127
---
header: 
  seq: 423616
  stamp: 
    secs: 1673257228
    nsecs: 572110503
  frame_id: "world"
pose: 
  position: 
    x: -1.1639031171798706
    y: -0.6336049437522888
    z: 0.026673411950469017
  orientation: 
    x: -0.4026138484477997
    y: -0.9150686264038086
    z: 0.02336452342569828
    w: -0.0023720727767795324
---
header: 
  seq: 423617
  stamp: 
    secs: 1673257228
    nsecs: 576253912
  frame_id: "world"
pose: 
  position: 
    x: -1.1639026403427124
    y: -0.6336042881011963
    z: 0.026661721989512444
  orientation: 
    x: -0.40271615982055664
    y: -0.9150286912918091
    z: 0.02316712588071823
    w: -0.0023558964021503925
---
header: 
  seq: 423618
  stamp: 
    secs: 1673257228
    nsecs: 579335925
  frame_id: "world"
pose: 
  position: 
    x: -1.1638884544372559
    y: -0.6336048245429993
    z: 0.026650380343198776
  orientation: 
    x: -0.40275031328201294
    y: -0.9150086641311646
    z: 0.023332485929131508
    w: -0.002676859498023987
---
header: 
  seq: 423619
  stamp: 
    secs: 1673257228
    nsecs: 582291686
  frame_id: "world"
pose: 
  position: 
    x: -1.1638782024383545
    y: -0.6336084604263306
    z: 0.026651110500097275
  orientation: 
    x: -0.40265703201293945
    y: -0.9150391221046448
    z: 0.023744801059365273
    w: -0.002656801836565137
---
header: 
  seq: 423620
  stamp: 
    secs: 1673257228
    nsecs: 586361893
  frame_id: "world"
pose: 
  position: 
    x: -1.1638703346252441
    y: -0.6336095929145813
    z: 0.026633499190211296
  orientation: 
    x: -0.4025747776031494
    y: -0.9150648713111877
    z: 0.024138832464814186
    w: -0.0027014706283807755
---
header: 
  seq: 423621
  stamp: 
    secs: 1673257228
    nsecs: 589110364
  frame_id: "world"
pose: 
  position: 
    x: -1.163863182067871
    y: -0.6336992383003235
    z: 0.02668234519660473
  orientation: 
    x: 0.06631073355674744
    y: -0.058445677161216736
    z: -0.993610680103302
    w: 0.07017765194177628
---
header: 
  seq: 423622
  stamp: 
    secs: 1673257228
    nsecs: 592427306
  frame_id: "world"
pose: 
  position: 
    x: -1.1638531684875488
    y: -0.6336192488670349
    z: 0.026630502194166183
  orientation: 
    x: -0.4024651348590851
    y: -0.915123701095581
    z: 0.02374170906841755
    w: -0.0026259440928697586
---
header: 
  seq: 423623
  stamp: 
    secs: 1673257228
    nsecs: 595730324
  frame_id: "world"
pose: 
  position: 
    x: -1.1638567447662354
    y: -0.63370281457901
    z: 0.02669595740735531
  orientation: 
    x: 0.0662178322672844
    y: -0.05806605517864227
    z: -0.9936463236808777
    w: 0.07007592171430588
---
header: 
  seq: 423624
  stamp: 
    secs: 1673257228
    nsecs: 599226797
  frame_id: "world"
pose: 
  position: 
    x: -1.163862943649292
    y: -0.6336019039154053
    z: 0.026649508625268936
  orientation: 
    x: -0.40274548530578613
    y: -0.9150049686431885
    z: 0.023552384227514267
    w: -0.002713895868510008
---
header: 
  seq: 423625
  stamp: 
    secs: 1673257228
    nsecs: 602529339
  frame_id: "world"
pose: 
  position: 
    x: -1.1638606786727905
    y: -0.633593738079071
    z: 0.02665548212826252
  orientation: 
    x: -0.4027726948261261
    y: -0.9149766564369202
    z: 0.024196559563279152
    w: -0.002571994671598077
---
header: 
  seq: 423626
  stamp: 
    secs: 1673257228
    nsecs: 606760309
  frame_id: "world"
pose: 
  position: 
    x: -1.1638689041137695
    y: -0.6335951089859009
    z: 0.026672011241316795
  orientation: 
    x: -0.40273651480674744
    y: -0.9150096774101257
    z: 0.02351340837776661
    w: -0.002779874950647354
---
header: 
  seq: 423627
  stamp: 
    secs: 1673257228
    nsecs: 609349886
  frame_id: "world"
pose: 
  position: 
    x: -1.1638792753219604
    y: -0.6335919499397278
    z: 0.02668081782758236
  orientation: 
    x: -0.4025391638278961
    y: -0.9150862693786621
    z: 0.023943966254591942
    w: -0.0024717331398278475
---
header: 
  seq: 423628
  stamp: 
    secs: 1673257228
    nsecs: 612610369
  frame_id: "world"
pose: 
  position: 
    x: -1.1638810634613037
    y: -0.6335859298706055
    z: 0.026705751195549965
  orientation: 
    x: -0.4027482867240906
    y: -0.9150047302246094
    z: 0.023545628413558006
    w: -0.0023923502303659916
---
header: 
  seq: 423629
  stamp: 
    secs: 1673257228
    nsecs: 616142886
  frame_id: "world"
pose: 
  position: 
    x: -1.1638942956924438
    y: -0.6336018443107605
    z: 0.026704387739300728
  orientation: 
    x: -0.4026716649532318
    y: -0.9150352478027344
    z: 0.023669056594371796
    w: -0.002432960318401456
---
header: 
  seq: 423630
  stamp: 
    secs: 1673257228
    nsecs: 619575411
  frame_id: "world"
pose: 
  position: 
    x: -1.163899302482605
    y: -0.633588969707489
    z: 0.026708204299211502
  orientation: 
    x: -0.40280067920684814
    y: -0.9149854183197021
    z: 0.023406118154525757
    w: -0.002349328249692917
---
header: 
  seq: 423631
  stamp: 
    secs: 1673257228
    nsecs: 623104208
  frame_id: "world"
pose: 
  position: 
    x: -1.1639020442962646
    y: -0.6335906386375427
    z: 0.026690291240811348
  orientation: 
    x: -0.4024330973625183
    y: -0.9151502251625061
    z: 0.0231974795460701
    w: -0.0030858495738357306
---
header: 
  seq: 423632
  stamp: 
    secs: 1673257228
    nsecs: 626003138
  frame_id: "world"
pose: 
  position: 
    x: -1.163902759552002
    y: -0.6335973143577576
    z: 0.026681074872612953
  orientation: 
    x: -0.40261855721473694
    y: -0.9150676727294922
    z: 0.023326149210333824
    w: -0.002323222579434514
---
header: 
  seq: 423633
  stamp: 
    secs: 1673257228
    nsecs: 629435969
  frame_id: "world"
pose: 
  position: 
    x: -1.1638898849487305
    y: -0.6335972547531128
    z: 0.026653708890080452
  orientation: 
    x: -0.40283218026161194
    y: -0.9149635434150696
    z: 0.023693718016147614
    w: -0.002550069009885192
---
header: 
  seq: 423634
  stamp: 
    secs: 1673257228
    nsecs: 632781785
  frame_id: "world"
pose: 
  position: 
    x: -1.1638904809951782
    y: -0.6336025595664978
    z: 0.026641514152288437
  orientation: 
    x: -0.4026104807853699
    y: -0.915054440498352
    z: 0.023937299847602844
    w: -0.002686847234144807
---
header: 
  seq: 423635
  stamp: 
    secs: 1673257228
    nsecs: 637102249
  frame_id: "world"
pose: 
  position: 
    x: -1.163885474205017
    y: -0.6336005926132202
    z: 0.026622822508215904
  orientation: 
    x: -0.40276286005973816
    y: -0.915002703666687
    z: 0.02331932634115219
    w: -0.0029030137229710817
---
header: 
  seq: 423636
  stamp: 
    secs: 1673257228
    nsecs: 639941758
  frame_id: "world"
pose: 
  position: 
    x: -1.1638799905776978
    y: -0.633607804775238
    z: 0.02659831941127777
  orientation: 
    x: -0.4024716913700104
    y: -0.9151213765144348
    z: 0.023725181818008423
    w: -0.002584117231890559
---
header: 
  seq: 423637
  stamp: 
    secs: 1673257228
    nsecs: 642885620
  frame_id: "world"
pose: 
  position: 
    x: -1.163865327835083
    y: -0.6335999965667725
    z: 0.026582710444927216
  orientation: 
    x: -0.40227290987968445
    y: -0.9152013063430786
    z: 0.0239856094121933
    w: -0.0027985491324216127
---
header: 
  seq: 423638
  stamp: 
    secs: 1673257228
    nsecs: 646266607
  frame_id: "world"
pose: 
  position: 
    x: -1.1638669967651367
    y: -0.6336104869842529
    z: 0.02659980021417141
  orientation: 
    x: -0.4026285409927368
    y: -0.9150521755218506
    z: 0.02377581037580967
    w: -0.0021713590249419212
---
header: 
  seq: 423639
  stamp: 
    secs: 1673257228
    nsecs: 649688664
  frame_id: "world"
pose: 
  position: 
    x: -1.163871169090271
    y: -0.6336988210678101
    z: 0.02665291540324688
  orientation: 
    x: 0.06636852025985718
    y: -0.05812249332666397
    z: -0.9936262369155884
    w: 0.07017163932323456
---
header: 
  seq: 423640
  stamp: 
    secs: 1673257228
    nsecs: 653719177
  frame_id: "world"
pose: 
  position: 
    x: -1.1638566255569458
    y: -0.6336219310760498
    z: 0.026603521779179573
  orientation: 
    x: -0.40273624658584595
    y: -0.9150075912475586
    z: 0.02358945831656456
    w: -0.00286312960088253
---
header: 
  seq: 423641
  stamp: 
    secs: 1673257228
    nsecs: 656628816
  frame_id: "world"
pose: 
  position: 
    x: -1.1638586521148682
    y: -0.633599042892456
    z: 0.02663295529782772
  orientation: 
    x: -0.4025810658931732
    y: -0.9150740504264832
    z: 0.023694997653365135
    w: -0.0025842925533652306
---
header: 
  seq: 423642
  stamp: 
    secs: 1673257228
    nsecs: 659659952
  frame_id: "world"
pose: 
  position: 
    x: -1.1638749837875366
    y: -0.6335980296134949
    z: 0.026652997359633446
  orientation: 
    x: -0.40254834294319153
    y: -0.9150843024253845
    z: 0.023849312216043472
    w: -0.0026085264980793
---
header: 
  seq: 423643
  stamp: 
    secs: 1673257228
    nsecs: 663468982
  frame_id: "world"
pose: 
  position: 
    x: -1.1638774871826172
    y: -0.6336038708686829
    z: 0.026687705889344215
  orientation: 
    x: -0.4029137194156647
    y: -0.9149250984191895
    z: 0.023816904053092003
    w: -0.0023278016597032547
---
header: 
  seq: 423644
  stamp: 
    secs: 1673257228
    nsecs: 666470727
  frame_id: "world"
pose: 
  position: 
    x: -1.1638902425765991
    y: -0.6335879564285278
    z: 0.02669965848326683
  orientation: 
    x: -0.40279293060302734
    y: -0.9149879217147827
    z: 0.0234290212392807
    w: -0.0024599486496299505
---
header: 
  seq: 423645
  stamp: 
    secs: 1673257228
    nsecs: 670061957
  frame_id: "world"
pose: 
  position: 
    x: -1.1638915538787842
    y: -0.6335504651069641
    z: 0.026615258306264877
  orientation: 
    x: -0.4026119112968445
    y: -0.9149534702301025
    z: 0.02763104997575283
    w: -0.0006628899718634784
---
header: 
  seq: 423646
  stamp: 
    secs: 1673257228
    nsecs: 673367936
  frame_id: "world"
pose: 
  position: 
    x: -1.163901925086975
    y: -0.6335898637771606
    z: 0.02669958584010601
  orientation: 
    x: -0.40276017785072327
    y: -0.9149941205978394
    z: 0.023743603378534317
    w: -0.002494084881618619
---
header: 
  seq: 423647
  stamp: 
    secs: 1673257228
    nsecs: 676590812
  frame_id: "world"
pose: 
  position: 
    x: -1.1639025211334229
    y: -0.6335932612419128
    z: 0.026686644181609154
  orientation: 
    x: -0.4027717709541321
    y: -0.9149966239929199
    z: 0.02346809022128582
    w: -0.002343157771974802
---
header: 
  seq: 423648
  stamp: 
    secs: 1673257228
    nsecs: 679870929
  frame_id: "world"
pose: 
  position: 
    x: -1.163901686668396
    y: -0.6335996389389038
    z: 0.026674587279558182
  orientation: 
    x: -0.40286800265312195
    y: -0.914956271648407
    z: 0.02334851585328579
    w: -0.002698133932426572
---
header: 
  seq: 423649
  stamp: 
    secs: 1673257228
    nsecs: 683599382
  frame_id: "world"
pose: 
  position: 
    x: -1.1638928651809692
    y: -0.6335958242416382
    z: 0.026654424145817757
  orientation: 
    x: -0.40284463763237
    y: -0.9149563312530518
    z: 0.023702286183834076
    w: -0.0030540002044290304
---
header: 
  seq: 423650
  stamp: 
    secs: 1673257228
    nsecs: 686876707
  frame_id: "world"
pose: 
  position: 
    x: -1.1638952493667603
    y: -0.6336875557899475
    z: 0.026676153764128685
  orientation: 
    x: 0.06647790223360062
    y: -0.05783790722489357
    z: -0.9936329126358032
    w: 0.07020799815654755
---
header: 
  seq: 423651
  stamp: 
    secs: 1673257228
    nsecs: 690106802
  frame_id: "world"
pose: 
  position: 
    x: -1.1638776063919067
    y: -0.633599579334259
    z: 0.02659837156534195
  orientation: 
    x: -0.4027860462665558
    y: -0.9149823784828186
    z: 0.023747650906443596
    w: -0.002602607011795044
---
header: 
  seq: 423652
  stamp: 
    secs: 1673257228
    nsecs: 693739280
  frame_id: "world"
pose: 
  position: 
    x: -1.163858413696289
    y: -0.633609414100647
    z: 0.026577716693282127
  orientation: 
    x: -0.4025103449821472
    y: -0.9151009917259216
    z: 0.023868998512625694
    w: -0.0024292999878525734
---
header: 
  seq: 423653
  stamp: 
    secs: 1673257228
    nsecs: 697714562
  frame_id: "world"
pose: 
  position: 
    x: -1.1638617515563965
    y: -0.6336037516593933
    z: 0.02656850591301918
  orientation: 
    x: -0.40268024802207947
    y: -0.9150333404541016
    z: 0.023593952879309654
    w: -0.002455833600834012
---
header: 
  seq: 423654
  stamp: 
    secs: 1673257228
    nsecs: 700167090
  frame_id: "world"
pose: 
  position: 
    x: -1.1638599634170532
    y: -0.6336053013801575
    z: 0.026576627045869827
  orientation: 
    x: -0.40230435132980347
    y: -0.9151952266693115
    z: 0.02371399477124214
    w: -0.0025838210713118315
---
header: 
  seq: 423655
  stamp: 
    secs: 1673257228
    nsecs: 703843481
  frame_id: "world"
pose: 
  position: 
    x: -1.16385817527771
    y: -0.6336159110069275
    z: 0.02658325806260109
  orientation: 
    x: -0.4028124213218689
    y: -0.9149678349494934
    z: 0.023857232183218002
    w: -0.0026068687438964844
---
header: 
  seq: 423656
  stamp: 
    secs: 1673257228
    nsecs: 707384859
  frame_id: "world"
pose: 
  position: 
    x: -1.1638703346252441
    y: -0.6336183547973633
    z: 0.026609651744365692
  orientation: 
    x: -0.4027740955352783
    y: -0.9149969220161438
    z: 0.02340456284582615
    w: -0.002410888671875
---
header: 
  seq: 423657
  stamp: 
    secs: 1673257228
    nsecs: 710511512
  frame_id: "world"
pose: 
  position: 
    x: -1.1638751029968262
    y: -0.6336188316345215
    z: 0.02664615586400032
  orientation: 
    x: -0.40283888578414917
    y: -0.9149547815322876
    z: 0.02396368980407715
    w: -0.0021036278922110796
---
header: 
  seq: 423658
  stamp: 
    secs: 1673257228
    nsecs: 713790138
  frame_id: "world"
pose: 
  position: 
    x: -1.1638907194137573
    y: -0.6336193680763245
    z: 0.026675336062908173
  orientation: 
    x: -0.4024951159954071
    y: -0.9151188731193542
    z: 0.023461777716875076
    w: -0.002169529441744089
---
header: 
  seq: 423659
  stamp: 
    secs: 1673257228
    nsecs: 717158658
  frame_id: "world"
pose: 
  position: 
    x: -1.16389799118042
    y: -0.6336314082145691
    z: 0.026694612577557564
  orientation: 
    x: -0.40299078822135925
    y: -0.91489577293396
    z: 0.023615550249814987
    w: -0.002540397923439741
---
header: 
  seq: 423660
  stamp: 
    secs: 1673257228
    nsecs: 720365302
  frame_id: "world"
pose: 
  position: 
    x: -1.163905143737793
    y: -0.6336224675178528
    z: 0.026715129613876343
  orientation: 
    x: -0.40235236287117004
    y: -0.9151744246482849
    z: 0.023750808089971542
    w: -0.0020502093248069286
---
header: 
  seq: 423661
  stamp: 
    secs: 1673257228
    nsecs: 723753152
  frame_id: "world"
pose: 
  position: 
    x: -1.1638975143432617
    y: -0.6336216330528259
    z: 0.026726417243480682
  orientation: 
    x: -0.402760773897171
    y: -0.9150070548057556
    z: 0.023236174136400223
    w: -0.002434144029393792
---
header: 
  seq: 423662
  stamp: 
    secs: 1673257228
    nsecs: 727515100
  frame_id: "world"
pose: 
  position: 
    x: -1.1639007329940796
    y: -0.6336095929145813
    z: 0.026705794036388397
  orientation: 
    x: -0.40275272727012634
    y: -0.9149948358535767
    z: 0.02386304922401905
    w: -0.0022752583026885986
---
header: 
  seq: 423663
  stamp: 
    secs: 1673257228
    nsecs: 730508120
  frame_id: "world"
pose: 
  position: 
    x: -1.1638948917388916
    y: -0.6336060762405396
    z: 0.026690445840358734
  orientation: 
    x: -0.40265217423439026
    y: -0.9150350689888
    z: 0.024035852402448654
    w: -0.002070982474833727
---
header: 
  seq: 423664
  stamp: 
    secs: 1673257228
    nsecs: 734694718
  frame_id: "world"
pose: 
  position: 
    x: -1.1638834476470947
    y: -0.633600115776062
    z: 0.02666071057319641
  orientation: 
    x: -0.40246593952178955
    y: -0.9151247143745422
    z: 0.023724127560853958
    w: -0.0022720186971127987
---
header: 
  seq: 423665
  stamp: 
    secs: 1673257228
    nsecs: 737157430
  frame_id: "world"
pose: 
  position: 
    x: -1.1638721227645874
    y: -0.6336019039154053
    z: 0.02662433497607708
  orientation: 
    x: -0.40277260541915894
    y: -0.914979875087738
    z: 0.024048687890172005
    w: -0.0027844032738357782
---
header: 
  seq: 423666
  stamp: 
    secs: 1673257228
    nsecs: 740679899
  frame_id: "world"
pose: 
  position: 
    x: -1.1638753414154053
    y: -0.6336821913719177
    z: 0.026655204594135284
  orientation: 
    x: 0.06632915884256363
    y: -0.05745628848671913
    z: -0.9936837553977966
    w: 0.06994230300188065
---
header: 
  seq: 423667
  stamp: 
    secs: 1673257228
    nsecs: 743817716
  frame_id: "world"
pose: 
  position: 
    x: -1.163849949836731
    y: -0.6335930824279785
    z: 0.02658185362815857
  orientation: 
    x: -0.40269705653190613
    y: -0.9150255918502808
    z: 0.023609066382050514
    w: -0.0024555479176342487
---
header: 
  seq: 423668
  stamp: 
    secs: 1673257228
    nsecs: 747769559
  frame_id: "world"
pose: 
  position: 
    x: -1.1638532876968384
    y: -0.633601188659668
    z: 0.026574771851301193
  orientation: 
    x: -0.4027719497680664
    y: -0.9149730801582336
    z: 0.024348529055714607
    w: -0.0024745988193899393
---
header: 
  seq: 423669
  stamp: 
    secs: 1673257228
    nsecs: 751758721
  frame_id: "world"
pose: 
  position: 
    x: -1.1638481616973877
    y: -0.6335945129394531
    z: 0.02658684365451336
  orientation: 
    x: -0.40290504693984985
    y: -0.9149291515350342
    z: 0.023749802261590958
    w: -0.0028615384362637997
---
header: 
  seq: 423670
  stamp: 
    secs: 1673257228
    nsecs: 754103900
  frame_id: "world"
pose: 
  position: 
    x: -1.1638498306274414
    y: -0.633595883846283
    z: 0.026592407375574112
  orientation: 
    x: -0.4026886224746704
    y: -0.9150168895721436
    z: 0.024046767503023148
    w: -0.0027743708342313766
---
header: 
  seq: 423671
  stamp: 
    secs: 1673257228
    nsecs: 757819968
  frame_id: "world"
pose: 
  position: 
    x: -1.1638617515563965
    y: -0.6335873007774353
    z: 0.026615072041749954
  orientation: 
    x: -0.40248367190361023
    y: -0.9151202440261841
    z: 0.023552777245640755
    w: -0.002673356095328927
---
header: 
  seq: 423672
  stamp: 
    secs: 1673257228
    nsecs: 760700346
  frame_id: "world"
pose: 
  position: 
    x: -1.16387140750885
    y: -0.6336093544960022
    z: 0.026648569852113724
  orientation: 
    x: -0.40276575088500977
    y: -0.9149817824363708
    z: 0.024042045697569847
    w: -0.00318084261380136
---
header: 
  seq: 423673
  stamp: 
    secs: 1673257228
    nsecs: 765022654
  frame_id: "world"
pose: 
  position: 
    x: -1.1638970375061035
    y: -0.633604884147644
    z: 0.02668636105954647
  orientation: 
    x: -0.4024650454521179
    y: -0.9151257872581482
    z: 0.023692263290286064
    w: -0.002318823942914605
---
header: 
  seq: 423674
  stamp: 
    secs: 1673257228
    nsecs: 767563839
  frame_id: "world"
pose: 
  position: 
    x: -1.1639105081558228
    y: -0.633609414100647
    z: 0.02671332284808159
  orientation: 
    x: -0.402578204870224
    y: -0.9150794148445129
    z: 0.02349759452044964
    w: -0.0029056360945105553
---
header: 
  seq: 423675
  stamp: 
    secs: 1673257228
    nsecs: 770814120
  frame_id: "world"
pose: 
  position: 
    x: -1.1639037132263184
    y: -0.6335720419883728
    z: 0.026650510728359222
  orientation: 
    x: -0.402364581823349
    y: -0.9150605797767639
    z: 0.027690749615430832
    w: -0.00035824335645884275
---
header: 
  seq: 423676
  stamp: 
    secs: 1673257228
    nsecs: 774179119
  frame_id: "world"
pose: 
  position: 
    x: -1.1639114618301392
    y: -0.6335678696632385
    z: 0.026657678186893463
  orientation: 
    x: -0.40228530764579773
    y: -0.9150815010070801
    z: 0.028146717697381973
    w: -0.00033821299439296126
---
header: 
  seq: 423677
  stamp: 
    secs: 1673257228
    nsecs: 777805213
  frame_id: "world"
pose: 
  position: 
    x: -1.163927435874939
    y: -0.6336124539375305
    z: 0.026735816150903702
  orientation: 
    x: -0.402530699968338
    y: -0.9150964617729187
    z: 0.023694954812526703
    w: -0.0024887018371373415
---
header: 
  seq: 423678
  stamp: 
    secs: 1673257228
    nsecs: 781134400
  frame_id: "world"
pose: 
  position: 
    x: -1.163906216621399
    y: -0.6335638165473938
    z: 0.026638226583600044
  orientation: 
    x: -0.4025129973888397
    y: -0.9149777293205261
    z: 0.028269194066524506
    w: 3.600183845264837e-05
---
header: 
  seq: 423679
  stamp: 
    secs: 1673257228
    nsecs: 784383059
  frame_id: "world"
pose: 
  position: 
    x: -1.1639134883880615
    y: -0.6336095929145813
    z: 0.026697220280766487
  orientation: 
    x: -0.402748703956604
    y: -0.9150083065032959
    z: 0.023387819528579712
    w: -0.0025284229777753353
---
header: 
  seq: 423680
  stamp: 
    secs: 1673257228
    nsecs: 788422976
  frame_id: "world"
pose: 
  position: 
    x: -1.1638845205307007
    y: -0.6335608959197998
    z: 0.0265430249273777
  orientation: 
    x: -0.4026451110839844
    y: -0.9149047136306763
    z: 0.0287396889179945
    w: -0.0005122033762745559
---
header: 
  seq: 423681
  stamp: 
    secs: 1673257228
    nsecs: 791055871
  frame_id: "world"
pose: 
  position: 
    x: -1.1638743877410889
    y: -0.6336106061935425
    z: 0.02660183794796467
  orientation: 
    x: -0.40276774764060974
    y: -0.9149835109710693
    z: 0.024018291383981705
    w: -0.0025453297421336174
---
header: 
  seq: 423682
  stamp: 
    secs: 1673257228
    nsecs: 794743405
  frame_id: "world"
pose: 
  position: 
    x: -1.1638736724853516
    y: -0.6335972547531128
    z: 0.026575298979878426
  orientation: 
    x: -0.40282192826271057
